{"type": "FeatureCollection", "features": [{"type": "Feature", "id": 1, "geometry": {"type": "Point", "coordinates": [27.0095752300001, 38.5131116100001]}, "properties": {"OBJECTID": 1, "Name": "Izmir Air Station", "Type": "Air Base", "LONG": 27.00957523, "LAT": 38.51311161, "Command": "USAFE", "Comments": null}}, {"type": "Feature", "id": 2, "geometry": {"type": "Point", "coordinates": [35.4209000000001, 37.0058000000001]}, "properties": {"OBJECTID": 2, "Name": "Incirlik Air Base\u200f", "Type": "Air Base", "LONG": 35.4209, "LAT": 37.0058, "Command": "EUCOM", "Comments": null}}, {"type": "Feature", "id": 3, "geometry": {"type": "Point", "coordinates": [44.3398, 36.5328000000001]}, "properties": {"OBJECTID": 3, "Name": "Erbil Air Base", "Type": "Air Base", "LONG": 44.3398, "LAT": 36.5328, "Command": null, "Comments": null}}, {"type": "Feature", "id": 4, "geometry": {"type": "Point", "coordinates": [44.3698000000001, 33.9405]}, "properties": {"OBJECTID": 4, "Name": "Balad Air Base\u200f", "Type": "Air Base", "LONG": 44.3698, "LAT": 33.9405, "Command": null, "Comments": null}}, {"type": "Feature", "id": 6, "geometry": {"type": "Point", "coordinates": [36.7794000000001, 31.8205]}, "properties": {"OBJECTID": 6, "Name": "Muwaffaq Salti Air Base \u200f", "Type": "Air Base", "LONG": 36.7794, "LAT": 31.8205, "Command": null, "Comments": null}}, {"type": "Feature", "id": 7, "geometry": {"type": "Point", "coordinates": [36.60878861, 28.37473902]}, "properties": {"OBJECTID": 7, "Name": "King Faisal Air Base\u200f", "Type": "Air Base", "LONG": 36.60878861, "LAT": 28.37473902, "Command": null, "Comments": null}}, {"type": "Feature", "id": 8, "geometry": {"type": "Point", "coordinates": [47.5201000000001, 29.3498000000001]}, "properties": {"OBJECTID": 8, "Name": "Ali Al Salem Air Base\u200f", "Type": "Air Base", "LONG": 47.5201, "LAT": 29.3498, "Command": null, "Comments": null}}, {"type": "Feature", "id": 9, "geometry": {"type": "Point", "coordinates": [50.5926000000001, 25.9144000000001]}, "properties": {"OBJECTID": 9, "Name": "Shaikh Isa Air Base\u200f", "Type": "Air Base", "LONG": 50.5926, "LAT": 25.9144, "Command": null, "Comments": null}}, {"type": "Feature", "id": 10, "geometry": {"type": "Point", "coordinates": [51.3222000000001, 25.1173000000001]}, "properties": {"OBJECTID": 10, "Name": "Al Udeid Air Base", "Type": "Air Base", "LONG": 51.3222, "LAT": 25.1173, "Command": null, "Comments": null}}, {"type": "Feature", "id": 11, "geometry": {"type": "Point", "coordinates": [47.5824000000001, 24.0663000000001]}, "properties": {"OBJECTID": 11, "Name": "Prince Sultan Air Base\u200f", "Type": "Air Base", "LONG": 47.5824, "LAT": 24.0663, "Command": null, "Comments": null}}, {"type": "Feature", "id": 12, "geometry": {"type": "Point", "coordinates": [40.5268, 21.4579000000001]}, "properties": {"OBJECTID": 12, "Name": "King Fahad Air Base\u200f", "Type": "Air Base", "LONG": 40.5268, "LAT": 21.4579, "Command": null, "Comments": null}}, {"type": "Feature", "id": 13, "geometry": {"type": "Point", "coordinates": [54.0245004500001, 17.66653598]}, "properties": {"OBJECTID": 13, "Name": "RAFO Thumrait Air Base\u200f", "Type": "Air Base", "LONG": 54.02450045, "LAT": 17.66653598, "Command": null, "Comments": null}}, {"type": "Feature", "id": 14, "geometry": {"type": "Point", "coordinates": [58.8908000000001, 20.6673000000001]}, "properties": {"OBJECTID": 14, "Name": "Masirah Air Base\u200f", "Type": "Air Base", "LONG": 58.8908, "LAT": 20.6673, "Command": null, "Comments": null}}, {"type": "Feature", "id": 15, "geometry": {"type": "Point", "coordinates": [58.2738000000001, 23.5995]}, "properties": {"OBJECTID": 15, "Name": "Muscat International Airport", "Type": "Air Base", "LONG": 58.2738, "LAT": 23.5995, "Command": null, "Comments": null}}, {"type": "Feature", "id": 16, "geometry": {"type": "Point", "coordinates": [57.4950541900001, 23.64566885]}, "properties": {"OBJECTID": 16, "Name": "RAFO Musannah", "Type": "Air Base", "LONG": 57.49505419, "LAT": 23.64566885, "Command": null, "Comments": null}}, {"type": "Feature", "id": 17, "geometry": {"type": "Point", "coordinates": [54.5522, 24.2386000000001]}, "properties": {"OBJECTID": 17, "Name": "Al Dhafra Air Base\u200f", "Type": "Air Base", "LONG": 54.5522, "LAT": 24.2386, "Command": null, "Comments": null}}, {"type": "Feature", "id": 18, "geometry": {"type": "Point", "coordinates": [38.2050919100001, 23.97537047]}, "properties": {"OBJECTID": 18, "Name": "King Fahd Industrial Port\u200f", "Type": "Naval Base", "LONG": 38.20509191, "LAT": 23.97537047, "Command": null, "Comments": null}}, {"type": "Feature", "id": 19, "geometry": {"type": "Point", "coordinates": [38.0680265600001, 24.0886576400001]}, "properties": {"OBJECTID": 19, "Name": "Yanbu Commercial Port\u200f", "Type": "Naval Base", "LONG": 38.06802656, "LAT": 24.08865764, "Command": null, "Comments": null}}, {"type": "Feature", "id": 20, "geometry": {"type": "Point", "coordinates": [43.1562000000001, 11.5425000000001]}, "properties": {"OBJECTID": 20, "Name": "Camp Lemonnier\u200f", "Type": "Naval Base", "LONG": 43.1562, "LAT": 11.5425, "Command": "AFRICOM", "Comments": null}}, {"type": "Feature", "id": 21, "geometry": {"type": "Point", "coordinates": [54.0114645, 16.93825614]}, "properties": {"OBJECTID": 21, "Name": "Salalah Port\u200f", "Type": "Naval Base", "LONG": 54.0114645, "LAT": 16.93825614, "Command": null, "Comments": null}}, {"type": "Feature", "id": 22, "geometry": {"type": "Point", "coordinates": [57.7117000000001, 19.6630000000001]}, "properties": {"OBJECTID": 22, "Name": "Port of Duqm\u200f", "Type": "Naval Base", "LONG": 57.7117, "LAT": 19.663, "Command": null, "Comments": null}}, {"type": "Feature", "id": 23, "geometry": {"type": "Point", "coordinates": [56.3673000000001, 25.2524]}, "properties": {"OBJECTID": 23, "Name": "Fujairah Naval Base", "Type": "Naval Base", "LONG": 56.3673, "LAT": 25.2524, "Command": null, "Comments": null}}, {"type": "Feature", "id": 24, "geometry": {"type": "Point", "coordinates": [55.03886771, 25.03115038]}, "properties": {"OBJECTID": 24, "Name": "Port of Jebel Ali", "Type": "Naval Base", "LONG": 55.03886771, "LAT": 25.03115038, "Command": null, "Comments": null}}, {"type": "Feature", "id": 25, "geometry": {"type": "Point", "coordinates": [50.6155255800001, 26.27689235]}, "properties": {"OBJECTID": 25, "Name": "Muharraq Air Base\u200f", "Type": "Naval Base", "LONG": 50.61552558, "LAT": 26.27689235, "Command": null, "Comments": null}}, {"type": "Feature", "id": 26, "geometry": {"type": "Point", "coordinates": [50.6101244430001, 26.2070088880001]}, "properties": {"OBJECTID": 26, "Name": "Naval Support Activity Bahrain", "Type": "Naval Base", "LONG": 50.6108, "LAT": 26.2076, "Command": null, "Comments": null}}, {"type": "Feature", "id": 28, "geometry": {"type": "Point", "coordinates": [72.4174041960001, -7.31363047699995]}, "properties": {"OBJECTID": 28, "Name": "Diego Garcia", "Type": "Air Base", "LONG": 72.411111, "LAT": 7.313333, "Command": null, "Comments": null}}, {"type": "Feature", "id": 29, "geometry": {"type": "Point", "coordinates": [38.662720413, 33.4928446930001]}, "properties": {"OBJECTID": 29, "Name": "Al Tanf garrison", "Type": "Ground Base", "LONG": null, "LAT": null, "Command": null, "Comments": null}}, {"type": "Feature", "id": 30, "geometry": {"type": "Point", "coordinates": [12.5963567150001, 46.030989586]}, "properties": {"OBJECTID": 30, "Name": "Aviano AFB", "Type": "Air Base", "LONG": null, "LAT": null, "Command": null, "Comments": null}}, {"type": "Feature", "id": 31, "geometry": {"type": "Point", "coordinates": [-5.61096710199996, 37.1713090260001]}, "properties": {"OBJECTID": 31, "Name": "Mor\u00f3n Air Base", "Type": "Air Base", "LONG": -5.615833, "LAT": 37.174722, "Command": null, "Comments": null}}, {"type": "Feature", "id": 32, "geometry": {"type": "Point", "coordinates": [-6.33212662799997, 36.6247272190001]}, "properties": {"OBJECTID": 32, "Name": "Naval Station Rota", "Type": "Naval Base", "LONG": -6.331558, "LAT": 36.620763, "Command": null, "Comments": null}}, {"type": "Feature", "id": 33, "geometry": {"type": "Point", "coordinates": [0.558804172000066, 52.4085212040001]}, "properties": {"OBJECTID": 33, "Name": "RAF Lakenheath ", "Type": "Air Base", "LONG": 0.556667, "LAT": 52.408333, "Command": null, "Comments": null}}, {"type": "Feature", "id": 34, "geometry": {"type": "Point", "coordinates": [0.485629863000042, 52.361931154]}, "properties": {"OBJECTID": 34, "Name": "RAF Mildenhall ", "Type": "Air Base", "LONG": 0.480833, "LAT": 52.365, "Command": null, "Comments": null}}, {"type": "Feature", "id": 35, "geometry": {"type": "Point", "coordinates": [24.156301435, 35.5330738260001]}, "properties": {"OBJECTID": 35, "Name": "U.S. Naval Support Activity (NSA) Souda Bay,", "Type": "Air Base", "LONG": null, "LAT": null, "Command": null, "Comments": " Near Chania"}}, {"type": "Feature", "id": 36, "geometry": {"type": "Point", "coordinates": [14.2902774470001, 40.885720855]}, "properties": {"OBJECTID": 36, "Name": "Naples International Airport", "Type": "Italy", "LONG": null, "LAT": null, "Command": null, "Comments": "Italy"}}, {"type": "Feature", "id": 37, "geometry": {"type": "Point", "coordinates": [23.4136769450001, 42.6938519380001]}, "properties": {"OBJECTID": 37, "Name": "Sofia International Airport", "Type": "Bulgaria", "LONG": null, "LAT": null, "Command": null, "Comments": null}}, {"type": "Feature", "id": 38, "geometry": {"type": "Point", "coordinates": [37.150819885, 32.1620583770001]}, "properties": {"OBJECTID": 38, "Name": "Prince Hassan Air Base", "Type": "Air Base", "LONG": null, "LAT": null, "Command": null, "Comments": "Jordan"}}, {"type": "Feature", "id": 39, "geometry": {"type": "Point", "coordinates": [32.5606413290001, 37.9790422990001]}, "properties": {"OBJECTID": 39, "Name": "Konya Airport", "Type": "Air Base", "LONG": null, "LAT": null, "Command": null, "Comments": "Turkey"}}, {"type": "Feature", "id": 40, "geometry": {"type": "Point", "coordinates": [48.165221118, 28.875730488]}, "properties": {"OBJECTID": 40, "Name": "Camp Arifjan", "Type": "US Air Force, US Navy, US Marine Corps and US Coast Guard", "LONG": null, "LAT": null, "Command": null, "Comments": "Kuwait"}}, {"type": "Feature", "id": 41, "geometry": {"type": "Point", "coordinates": [55.3670055310001, 25.0240741710001]}, "properties": {"OBJECTID": 41, "Name": "Al Minhad Air Base", "Type": "Air Base", "LONG": null, "LAT": null, "Command": null, "Comments": null}}, {"type": "Feature", "id": 42, "geometry": {"type": "Point", "coordinates": [-1.78927820399997, 51.6833232340001]}, "properties": {"OBJECTID": 42, "Name": "RAF Fairford", "Type": "Air Base", "LONG": null, "LAT": null, "Command": null, "Comments": "UK"}}, {"type": "Feature", "id": 43, "geometry": {"type": "Point", "coordinates": [44.2168806560001, 33.2516641130001]}, "properties": {"OBJECTID": 43, "Name": "Victory Base Complex", "Type": "US Base", "LONG": null, "LAT": null, "Command": null, "Comments": "Iraq"}}, {"type": "Feature", "id": 44, "geometry": {"type": "Point", "coordinates": [52.7180977100001, 24.064652864]}, "properties": {"OBJECTID": 44, "Name": "Al\u202fRuwais THAAD Radar Site", "Type": "US Base", "LONG": null, "LAT": null, "Command": null, "Comments": "UAE"}}]}